,City,Country,Date,Lat,Lng,Max Temp,Humidity,Cloudiness,Wind Speed,Current Description,Rain Inches (last 3 hrs),Snow Inches (last 3 hrs)
0,Lagoa,PT,2020-04-19 18:53:32,39.05,-27.98,57.97,66,14,28.3,few clouds,0.0,0.0
1,Kapaa,US,2020-04-19 18:52:34,22.08,-159.32,78.01,83,75,5.82,broken clouds,0.0,0.0
2,Cayenne,GF,2020-04-19 18:56:15,4.93,-52.33,84.2,79,97,11.41,moderate rain,4.38,0.0
3,Vestmannaeyjar,IS,2020-04-19 18:53:16,63.44,-20.27,44.6,100,90,26.4,moderate rain,0.0,0.0
4,Richards Bay,ZA,2020-04-19 19:00:44,-28.78,32.04,71.04,80,0,12.21,clear sky,0.0,0.0
5,Pahrump,US,2020-04-19 18:56:37,36.21,-115.98,63.99,34,27,7.74,scattered clouds,0.0,0.0
6,Severo-Kurilsk,RU,2020-04-19 18:54:58,50.68,156.12,26.42,90,9,14.27,clear sky,0.0,0.0
7,Chuy,UY,2020-04-19 18:51:04,-33.7,-53.46,72.5,63,0,8.7,clear sky,0.0,0.0
8,Qaanaaq,GL,2020-04-19 18:53:07,77.48,-69.36,17.53,89,68,8.03,broken clouds,0.0,0.0
9,Mount Gambier,AU,2020-04-19 18:54:48,-37.83,140.77,60.8,77,90,16.11,light intensity shower rain,0.0,0.0
10,Rikitea,PF,2020-04-19 18:52:04,-23.12,-134.97,76.75,70,59,7.87,broken clouds,0.0,0.0
11,Lebu,CL,2020-04-19 18:54:28,-37.62,-73.65,61.47,60,100,8.14,overcast clouds,0.0,0.0
12,Kirakira,SB,2020-04-19 18:55:50,-10.45,161.92,79.2,81,99,2.44,overcast clouds,0.0,0.0
13,Saint-Philippe,RE,2020-04-19 18:54:03,-21.36,55.77,73.4,78,14,10.29,light rain,0.24,0.0
14,Provideniya,RU,2020-04-19 18:52:29,64.38,-173.3,18.32,94,98,15.28,light snow,0.0,0.43
15,Victoria,HK,2020-04-19 18:54:12,22.29,114.16,77.0,83,45,3.0,scattered clouds,0.0,0.0
16,Hasaki,JP,2020-04-19 18:56:24,35.73,140.83,48.2,87,75,14.99,broken clouds,0.0,0.0
17,Kaeo,NZ,2020-04-19 19:00:54,-35.1,173.78,57.99,94,100,1.01,light rain,0.62,0.0
18,Port Alfred,ZA,2020-04-19 18:52:23,-33.59,26.89,77.63,57,20,14.81,few clouds,0.0,0.0
19,Tuatapere,NZ,2020-04-19 19:00:56,-46.13,167.68,44.01,80,88,7.0,light rain,0.26,0.0
20,Gizo,SB,2020-04-19 18:56:02,-8.1,156.84,81.09,76,97,1.97,light rain,2.61,0.0
21,Esperance,AU,2020-04-19 18:52:46,-33.87,121.9,51.8,93,6,6.93,clear sky,0.0,0.0
22,Najran,SA,2020-04-19 19:00:59,17.49,44.13,75.2,57,40,6.93,scattered clouds,0.0,0.0
23,Khatanga,RU,2020-04-19 18:54:22,71.97,102.5,17.4,94,38,4.81,scattered clouds,0.0,0.0
24,Snyder,US,2020-04-19 19:01:01,32.72,-100.92,81.0,13,1,20.8,clear sky,0.0,0.0
25,Malanje,AO,2020-04-19 19:01:02,-9.54,16.34,66.6,69,32,3.33,moderate rain,3.65,0.0
26,Ushuaia,AR,2020-04-19 18:48:57,-54.8,-68.3,44.6,75,40,19.46,scattered clouds,0.0,0.0
27,San Cristobal,VE,2020-04-19 19:01:04,7.77,-72.22,93.2,38,40,5.82,smoke,0.0,0.0
28,New Norfolk,AU,2020-04-19 18:52:54,-42.78,147.06,48.0,84,100,4.12,overcast clouds,0.0,0.0
29,Tasiilaq,GL,2020-04-19 18:52:58,65.61,-37.64,33.8,69,99,16.11,light snow,0.0,0.43
30,Albany,US,2020-04-19 18:50:30,42.6,-73.97,64.99,23,1,3.0,clear sky,0.0,0.0
31,Faya,SA,2020-04-19 18:57:58,18.39,42.45,66.2,82,98,4.52,light rain,0.43,0.0
32,Akyab,MM,2020-04-19 19:01:08,20.15,92.9,79.81,85,5,9.66,clear sky,0.0,0.0
33,Cao Bang,VN,2020-04-19 19:01:08,22.67,106.25,73.63,83,24,2.1,few clouds,0.0,0.0
34,Bilibino,RU,2020-04-19 19:01:09,68.05,166.44,-3.08,77,99,0.81,overcast clouds,0.0,0.0
35,Haringhata,IN,2020-04-19 19:01:10,22.95,88.57,82.4,94,40,10.29,haze,0.0,0.0
36,Ossora,RU,2020-04-19 19:01:11,59.24,163.07,17.26,91,99,12.17,overcast clouds,0.0,0.0
37,Nikolskoye,RU,2020-04-19 18:53:26,59.7,30.79,39.2,86,75,4.47,broken clouds,0.0,0.0
38,Careiro Da Varzea,BR,2020-04-19 19:01:13,-3.2,-59.81,86.0,70,75,4.7,broken clouds,0.0,0.0
39,Chokurdakh,RU,2020-04-19 18:52:48,70.63,147.92,6.24,95,100,9.69,overcast clouds,0.0,0.0
40,Labuhan,ID,2020-04-19 18:52:22,-6.88,112.21,80.08,81,63,1.57,broken clouds,0.0,0.0
41,Bredasdorp,ZA,2020-04-19 18:52:32,-34.53,20.04,61.0,87,4,2.24,clear sky,0.0,0.0
42,Sola,VU,2020-04-19 18:55:43,-13.88,167.55,75.2,100,20,4.79,few clouds,0.0,0.0
43,Hermanus,ZA,2020-04-19 18:51:58,-34.42,19.23,62.01,94,59,1.01,broken clouds,0.0,0.0
44,Kysyl-Syr,RU,2020-04-19 19:01:18,63.9,122.76,4.3,92,0,5.26,clear sky,0.0,0.0
45,Katsuura,JP,2020-04-19 18:52:14,35.13,140.3,51.01,82,98,3.0,overcast clouds,0.0,0.0
46,Barrow,US,2020-04-19 18:52:18,71.29,-156.79,10.4,85,90,3.36,light snow,0.0,0.0
47,Saldanha,ZA,2020-04-19 18:52:40,-33.01,17.94,60.8,82,0,12.75,clear sky,0.0,0.0
48,Butaritari,KI,2020-04-19 18:52:14,3.07,172.79,83.07,75,14,12.5,light rain,1.53,0.0
49,Mataura,NZ,2020-04-19 18:51:57,-46.19,168.86,44.01,81,93,7.0,light rain,0.54,0.0
50,Buchanan,LR,2020-04-19 19:01:22,5.88,-10.05,84.2,83,40,5.82,scattered clouds,0.0,0.0
51,Sotouboua,TG,2020-04-19 19:01:22,8.57,0.98,82.96,59,100,3.24,light rain,0.77,0.0
52,Mount Isa,AU,2020-04-19 19:01:23,-20.73,139.5,60.8,51,28,7.25,scattered clouds,0.0,0.0
53,Pevek,RU,2020-04-19 18:52:08,69.7,170.31,4.23,94,100,5.55,light snow,0.0,0.2
54,Isakly,RU,2020-04-19 19:01:27,54.13,51.53,41.59,65,74,3.91,broken clouds,0.0,0.0
55,Kjollefjord,NO,2020-04-19 18:54:33,70.95,27.35,39.2,86,75,28.86,shower rain,0.0,0.0
56,Boa Vista,BR,2020-04-19 19:01:28,2.82,-60.67,93.2,44,75,3.36,broken clouds,0.0,0.0
57,Cape Town,ZA,2020-04-19 18:51:56,-33.93,18.42,63.0,93,75,19.46,broken clouds,0.0,0.0
58,Kasempa,ZM,2020-04-19 19:01:31,-13.46,25.83,64.67,57,8,5.21,clear sky,0.0,0.0
59,Hilo,US,2020-04-19 18:54:09,19.73,-155.09,75.2,64,1,4.7,clear sky,0.0,0.0
60,Puerto Ayora,EC,2020-04-19 18:55:17,-0.74,-90.35,86.0,70,40,13.87,shower rain,0.0,0.0
61,Talcahuano,CL,2020-04-19 18:59:58,-36.72,-73.12,68.0,49,95,13.87,overcast clouds,0.0,0.0
62,Saint-Orens-De-Gameville,FR,2020-04-19 19:01:36,43.55,1.53,60.8,87,75,8.05,broken clouds,0.0,0.0
63,Mtambile,TZ,2020-04-19 19:01:37,-5.38,39.7,80.2,79,100,12.37,light rain,1.22,0.0
64,Kodiak,US,2020-04-19 18:55:54,57.79,-152.41,44.6,81,75,5.82,broken clouds,0.0,0.0
65,Durban,ZA,2020-04-19 18:59:59,-29.86,31.03,69.8,83,0,8.05,clear sky,0.0,0.0
66,Marzuq,YE,2020-04-19 18:58:16,14.4,46.47,77.49,43,100,4.88,light rain,0.33,0.0
67,Tuktoyaktuk,CA,2020-04-19 18:52:19,69.45,-133.04,6.8,84,90,14.99,light snow,0.0,0.0
68,Tezu,IN,2020-04-19 18:52:20,27.92,96.17,68.25,60,60,2.37,light rain,0.79,0.0
69,Hobart,AU,2020-04-19 18:47:47,-42.88,147.33,51.8,76,100,3.36,overcast clouds,0.0,0.0
70,La Palma,US,2020-04-19 18:57:56,33.85,-118.05,66.2,52,75,5.5,broken clouds,0.0,0.0
71,Yatou,CN,2020-04-19 18:55:37,37.15,122.38,45.86,91,13,8.7,few clouds,0.0,0.0
72,Half Moon Bay,US,2020-04-19 19:01:42,37.46,-122.43,63.0,76,90,5.82,overcast clouds,0.0,0.0
73,San Juan,AR,2020-04-19 19:01:43,-31.54,-68.54,84.13,24,0,12.84,clear sky,0.0,0.0
74,Kavaratti,IN,2020-04-19 18:54:30,10.57,72.64,85.98,67,4,5.32,clear sky,0.0,0.0
75,Hamilton,US,2020-04-19 18:55:49,39.18,-84.53,55.99,54,90,6.93,overcast clouds,0.0,0.0
76,Lamar,US,2020-04-19 19:01:46,33.67,-95.58,62.01,100,90,6.93,thunderstorm,0.0,0.0
77,Henties Bay,NA,2020-04-19 18:59:21,-22.12,14.28,57.99,93,1,1.99,clear sky,0.0,0.0
78,Aklavik,CA,2020-04-19 18:56:06,68.22,-135.01,19.4,44,75,3.36,broken clouds,0.0,0.0
79,Walvis Bay,NA,2020-04-19 19:01:48,-22.96,14.51,62.6,77,1,3.36,clear sky,0.0,0.0
80,Longyearbyen,SJ,2020-04-19 18:53:44,78.22,15.64,32.27,93,100,14.81,snow,0.0,1.73
81,Baykit,RU,2020-04-19 19:01:50,61.67,96.37,22.87,91,0,2.19,clear sky,0.0,0.0
82,Leningradskiy,RU,2020-04-19 18:52:57,69.38,178.42,6.6,92,96,6.89,overcast clouds,0.0,0.0
83,Besikduzu,TR,2020-04-19 19:01:52,41.05,39.23,55.4,76,21,3.36,few clouds,0.0,0.0
84,Bagotville,AU,2020-04-19 19:01:53,-28.98,153.42,63.0,100,0,6.93,clear sky,0.0,0.0
85,Mlimba,TZ,2020-04-19 19:01:54,-8.8,35.82,73.27,76,89,1.9,light rain,1.68,0.0
86,Khrebtovaya,RU,2020-04-19 19:01:54,56.7,104.25,16.12,90,10,3.67,clear sky,0.0,0.0
87,Launceston,AU,2020-04-19 19:01:55,-41.45,147.17,52.0,87,75,13.87,shower rain,0.0,0.0
88,Ketchikan,US,2020-04-19 19:01:56,55.34,-131.65,48.2,93,90,16.11,overcast clouds,0.0,0.0
89,Katangli,RU,2020-04-19 19:01:58,51.71,143.23,29.62,96,100,8.01,overcast clouds,0.0,0.0
90,Pangnirtung,CA,2020-04-19 18:53:36,66.15,-65.71,3.2,84,20,5.82,few clouds,0.0,0.0
91,Rawson,AR,2020-04-19 19:01:59,-43.3,-65.1,65.41,28,91,19.33,overcast clouds,0.0,0.0
92,Sao Filipe,CV,2020-04-19 18:55:31,14.9,-24.5,72.03,74,13,23.78,few clouds,0.0,0.0
93,Pavlovskiy,RU,2020-04-19 19:02:01,57.84,54.84,35.82,79,52,4.0,broken clouds,0.0,0.0
94,Liverpool,GB,2020-04-19 19:02:02,53.41,-2.98,57.99,35,9,17.22,clear sky,0.0,0.0
95,Rio Do Sul,BR,2020-04-19 19:01:18,-27.21,-49.64,78.01,65,63,1.01,broken clouds,0.0,0.0
96,Atherton,GB,2020-04-19 19:02:03,53.52,-2.49,55.99,33,15,8.01,few clouds,0.0,0.0
97,Coolum Beach,AU,2020-04-19 19:02:04,-26.53,153.1,57.0,97,6,1.01,clear sky,0.0,0.0
98,Yellowknife,CA,2020-04-19 18:53:02,62.46,-114.35,23.0,62,20,14.99,few clouds,0.0,0.0
99,Punta Arenas,CL,2020-04-19 18:52:25,-53.15,-70.92,44.6,65,40,39.15,scattered clouds,0.0,0.0
100,Leh,IN,2020-04-19 19:02:07,34.17,77.58,34.48,17,49,3.38,scattered clouds,0.0,0.0
101,Saint-Ambroise,CA,2020-04-19 19:02:08,48.55,-71.33,42.01,86,100,1.01,light rain,1.26,0.0
102,Hobyo,SO,2020-04-19 19:02:08,5.35,48.53,85.42,70,91,11.36,overcast clouds,0.0,0.0
103,Aksarayskiy,RU,2020-04-19 19:02:09,46.79,48.01,57.2,50,87,6.71,light rain,0.17,0.0
104,Souillac,MU,2020-04-19 18:53:09,-20.52,57.52,78.01,83,75,9.17,broken clouds,0.0,0.0
105,Avarua,CK,2020-04-19 18:52:59,-21.21,-159.78,80.6,74,13,5.82,few clouds,0.0,0.0
106,Moron,AR,2020-04-19 19:02:12,-34.65,-58.62,81.0,45,1,4.52,clear sky,0.0,0.0
107,Gueret,FR,2020-04-19 19:02:12,46.17,1.87,59.0,93,100,3.36,light rain,1.41,0.0
108,Saint George,US,2020-04-19 18:53:47,37.1,-113.58,70.0,42,1,3.36,clear sky,0.0,0.0
109,Dudinka,RU,2020-04-19 18:54:52,69.41,86.18,39.2,69,100,24.61,light rain,0.86,0.0
110,Dire Dawa,ET,2020-04-19 19:02:14,9.59,41.87,72.39,46,40,0.78,scattered clouds,0.0,0.0
111,Bluff,NZ,2020-04-19 19:01:16,-46.6,168.33,44.01,80,97,7.0,light rain,1.66,0.0
112,Aleksandrov Gay,RU,2020-04-19 19:02:16,50.15,48.57,48.7,48,100,4.56,overcast clouds,0.0,0.0
113,Wajima,JP,2020-04-19 18:54:21,37.4,136.9,51.73,87,100,8.59,light rain,0.96,0.0
114,Lavrentiya,RU,2020-04-19 18:55:01,65.58,-171.0,16.23,91,100,6.91,overcast clouds,0.0,0.0
115,Thompson,CA,2020-04-19 18:52:39,55.74,-97.86,21.2,79,90,9.17,light snow,0.0,0.0
116,Valparaiso,CL,2020-04-19 19:01:05,-33.04,-71.63,82.4,48,1,14.99,clear sky,0.0,0.0
117,Busselton,AU,2020-04-19 18:52:38,-33.65,115.33,55.99,58,97,14.7,overcast clouds,0.0,0.0
118,Luderitz,NA,2020-04-19 18:56:33,-26.65,15.16,64.4,77,0,8.05,clear sky,0.0,0.0
119,Borgarnes,IS,2020-04-19 19:02:21,64.54,-21.92,48.2,87,90,19.46,light intensity drizzle,0.0,0.0
120,Russell,US,2020-04-19 19:02:22,32.35,-85.2,55.4,87,90,5.82,thunderstorm,0.0,0.0
121,Mar Del Plata,AR,2020-04-19 18:52:26,-38.0,-57.56,77.0,57,2,16.11,clear sky,0.0,0.0
122,Amahai,ID,2020-04-19 19:02:23,-3.33,128.92,80.6,78,97,2.75,light rain,0.16,0.0
123,Georgetown,MY,2020-04-19 18:58:06,5.41,100.34,82.4,94,20,3.36,few clouds,0.0,0.0
124,Cabo San Lucas,MX,2020-04-19 18:52:42,22.89,-109.91,75.99,64,5,6.93,clear sky,0.0,0.0
125,Lillers,FR,2020-04-19 19:02:25,50.56,2.48,55.99,88,52,10.0,broken clouds,0.0,0.0
126,Bengkulu,ID,2020-04-19 18:55:22,-3.8,102.27,78.82,81,100,3.74,overcast clouds,0.0,0.0
127,Torbay,CA,2020-04-19 18:55:19,47.67,-52.73,34.0,96,90,32.21,moderate rain,0.0,0.0
128,Yuzhno-Kurilsk,RU,2020-04-19 19:02:28,44.03,145.86,36.25,82,2,5.39,clear sky,0.0,0.0
129,West Wendover,US,2020-04-19 19:02:02,40.74,-114.07,59.0,41,90,10.29,overcast clouds,0.0,0.0
130,Sandur,IN,2020-04-19 19:01:54,15.1,76.55,86.76,20,34,9.35,scattered clouds,0.0,0.0
131,Nanortalik,GL,2020-04-19 18:57:24,60.14,-45.24,30.18,89,14,15.79,few clouds,0.0,0.0
132,Puerto Baquerizo Moreno,EC,2020-04-19 19:02:31,-0.9,-89.6,77.81,85,18,12.93,few clouds,0.0,0.0
133,Samarai,PG,2020-04-19 19:02:32,-10.62,150.67,79.99,82,8,4.43,clear sky,0.0,0.0
134,Greystones,IE,2020-04-19 19:02:33,53.14,-6.06,48.99,87,3,7.85,clear sky,0.0,0.0
135,Broome,US,2020-04-19 18:54:49,42.25,-75.83,57.99,46,1,10.29,light rain,0.0,0.0
136,Marawi,PH,2020-04-19 18:56:26,8.0,124.29,67.96,73,80,2.46,broken clouds,0.0,0.0
137,Carnarvon,AU,2020-04-19 19:02:35,-24.87,113.63,73.4,78,38,12.75,scattered clouds,0.0,0.0
138,Tual,ID,2020-04-19 18:54:57,-5.67,132.75,83.89,71,79,4.45,broken clouds,0.0,0.0
139,Castro,BR,2020-04-19 19:00:19,-24.79,-50.01,73.99,34,2,2.82,clear sky,0.0,0.0
140,Namibe,AO,2020-04-19 18:56:39,-15.2,12.15,76.14,62,2,14.14,light rain,0.21,0.0
141,Shelburne,CA,2020-04-19 19:00:18,44.08,-80.2,57.2,54,40,14.99,scattered clouds,0.0,0.0
142,Erdenet,MN,2020-04-19 19:02:38,49.03,104.08,23.32,59,29,2.37,scattered clouds,0.0,0.0
143,Lima,PE,2020-04-19 18:59:50,-12.04,-77.03,78.8,61,5,6.93,clear sky,0.0,0.0
144,Hervey Bay,AU,2020-04-19 19:00:52,-25.3,152.85,68.0,100,40,4.7,scattered clouds,0.0,0.0
145,Ancud,CL,2020-04-19 18:53:36,-41.87,-73.82,53.6,81,75,12.75,broken clouds,0.0,0.0
146,Olinda,BR,2020-04-19 18:54:52,-8.01,-34.86,84.2,74,40,10.29,scattered clouds,0.0,0.0
147,Yumen,CN,2020-04-19 18:52:53,40.28,97.2,44.76,24,50,18.05,scattered clouds,0.0,0.0
148,Aborlan,PH,2020-04-19 19:02:45,9.44,118.55,82.4,83,20,4.7,few clouds,0.0,0.0
149,Vaini,TO,2020-04-19 19:02:34,-21.2,-175.2,77.0,83,40,9.17,scattered clouds,0.0,0.0
150,Fasa,IR,2020-04-19 19:02:46,28.94,53.65,62.6,67,100,4.5,overcast clouds,0.0,0.0
151,Vardo,NO,2020-04-19 18:53:05,70.37,31.11,35.6,93,75,9.17,broken clouds,0.0,0.0
152,Iralaya,HN,2020-04-19 19:02:48,15.0,-83.23,89.6,66,40,8.05,scattered clouds,0.0,0.0
153,Kahului,US,2020-04-19 18:50:36,20.89,-156.47,73.4,69,20,5.5,few clouds,0.0,0.0
154,Lyman,UA,2020-04-19 19:02:49,48.99,37.8,47.48,56,63,2.26,broken clouds,0.0,0.0
155,San Quintin,MX,2020-04-19 18:55:44,30.48,-115.95,63.99,63,99,15.23,overcast clouds,0.0,0.0
156,Sampit,ID,2020-04-19 19:02:52,-2.53,112.95,75.07,91,56,1.16,broken clouds,0.0,0.0
157,Seoul,KR,2020-04-19 19:00:39,37.57,126.98,50.0,81,90,4.52,overcast clouds,0.0,0.0
158,Palompon,PH,2020-04-19 19:02:53,11.05,124.38,78.66,86,92,5.01,light rain,0.24,0.0
159,Ribeira Grande,PT,2020-04-19 19:02:54,38.52,-28.7,60.8,59,20,18.34,few clouds,0.0,0.0
160,Galesong,ID,2020-04-19 19:02:56,-5.32,119.37,75.2,100,20,3.36,few clouds,0.0,0.0
161,Roswell,US,2020-04-19 19:02:44,34.02,-84.36,59.0,87,90,5.82,overcast clouds,0.0,0.0
162,Paamiut,GL,2020-04-19 19:02:57,61.99,-49.67,30.72,89,44,18.86,scattered clouds,0.0,0.0
163,Avera,US,2020-04-19 18:56:05,33.19,-82.53,51.8,92,90,12.75,moderate rain,0.0,0.0
164,Senanga,ZM,2020-04-19 19:02:59,-16.12,23.27,72.7,46,63,3.6,broken clouds,0.0,0.0
165,Darakert,AM,2020-04-19 19:03:00,40.11,44.41,53.6,62,75,4.7,light rain,0.84,0.0
166,Anzio,IT,2020-04-19 19:03:00,41.49,12.62,63.0,85,100,1.99,overcast clouds,0.0,0.0
167,Melchor De Mencos,GT,2020-04-19 19:03:01,17.07,-89.15,96.8,47,5,9.17,smoke,0.0,0.0
168,Port Hueneme,US,2020-04-19 19:03:02,34.15,-119.2,64.4,67,20,6.93,few clouds,0.0,0.0
169,Slave Lake,CA,2020-04-19 18:59:30,55.28,-114.77,37.4,69,90,2.24,overcast clouds,0.0,0.0
170,Amapa,BR,2020-04-19 18:57:37,1.0,-52.0,90.75,51,62,2.62,light rain,2.31,0.0
171,Dikson,RU,2020-04-19 18:53:34,73.51,80.55,35.4,88,100,30.65,light rain,0.12,0.0
172,Jamestown,US,2020-04-19 19:01:05,42.1,-79.24,55.4,47,75,20.8,broken clouds,0.0,0.0
173,Port Keats,AU,2020-04-19 19:03:06,-14.25,129.55,81.7,73,14,2.01,few clouds,0.0,0.0
174,Agapovka,RU,2020-04-19 19:03:08,53.3,59.13,39.2,51,20,2.24,few clouds,0.0,0.0
175,Tokonou,GN,2020-04-19 19:03:09,9.65,-9.78,91.38,32,57,2.15,broken clouds,0.0,0.0
176,Malindi,KE,2020-04-19 19:00:13,-3.22,40.12,78.8,94,40,13.35,scattered clouds,0.0,0.0
177,Baiyin,CN,2020-04-19 19:03:13,36.56,104.21,48.99,33,93,11.18,overcast clouds,0.0,0.0
178,Mbanza-Ngungu,CD,2020-04-19 19:03:14,-5.25,14.87,70.5,79,75,2.66,broken clouds,0.0,0.0
179,Upernavik,GL,2020-04-19 19:03:15,72.79,-56.15,24.24,88,63,10.78,broken clouds,0.0,0.0
180,Muzhi,RU,2020-04-19 19:03:15,65.37,64.67,33.84,96,100,5.61,overcast clouds,0.0,0.0
181,Atuona,PF,2020-04-19 19:00:21,-9.8,-139.03,82.45,76,92,15.55,light rain,0.32,0.0
182,Opuwo,NA,2020-04-19 18:57:23,-18.06,13.84,77.0,36,46,8.21,light rain,0.2,0.0
183,Husavik,IS,2020-04-19 18:53:40,66.04,-17.34,48.2,70,20,16.11,few clouds,0.0,0.0
184,Laguna,US,2020-04-19 18:56:03,38.42,-121.42,64.99,59,75,8.05,broken clouds,0.0,0.0
185,Manitouwadge,CA,2020-04-19 19:03:19,49.12,-85.84,26.6,42,75,10.29,broken clouds,0.0,0.0
186,Kristianstad,SE,2020-04-19 19:03:19,56.03,14.15,52.0,42,0,8.05,clear sky,0.0,0.0
187,Cherskiy,RU,2020-04-19 19:03:08,68.75,161.3,-0.9,93,99,6.55,overcast clouds,0.0,0.0
188,Saskylakh,RU,2020-04-19 18:53:56,71.92,114.08,15.55,93,0,7.4,clear sky,0.0,0.0
189,Cururupu,BR,2020-04-19 18:53:55,-1.83,-44.87,83.03,81,94,5.48,moderate rain,3.4,0.0
190,Excelsior Springs,US,2020-04-19 19:02:41,39.34,-94.23,64.0,38,1,11.41,clear sky,0.0,0.0
191,Constitucion,CL,2020-04-19 18:54:54,-35.33,-72.42,68.11,41,57,17.36,broken clouds,0.0,0.0
192,Soanierana Ivongo,MG,2020-04-19 19:03:24,-16.92,49.58,75.25,87,84,6.44,moderate rain,6.3,0.0
193,Shubarkuduk,KZ,2020-04-19 19:03:24,49.14,56.49,55.67,58,100,7.47,light rain,0.14,0.0
194,Loum,CM,2020-04-19 19:03:25,4.72,9.74,74.93,84,100,2.21,moderate rain,5.3,0.0
195,Aswan,EG,2020-04-19 18:59:40,24.09,32.91,76.37,22,0,4.09,clear sky,0.0,0.0
196,Sabang,ID,2020-04-19 19:03:26,5.89,95.32,83.26,75,83,7.78,broken clouds,0.0,0.0
197,Codrington,AU,2020-04-19 19:03:27,-38.27,141.97,61.27,66,100,20.0,light rain,0.42,0.0
198,Fortuna,US,2020-04-19 19:02:09,40.6,-124.16,57.99,66,90,4.7,overcast clouds,0.0,0.0
199,Shekhupura,PK,2020-04-19 19:00:23,31.71,73.98,75.2,47,59,4.7,broken clouds,0.0,0.0
200,Arraial Do Cabo,BR,2020-04-19 19:01:14,-22.97,-42.03,78.8,65,40,10.29,scattered clouds,0.0,0.0
201,Dekar,BW,2020-04-19 19:03:29,-21.53,21.93,73.87,23,19,7.31,few clouds,0.0,0.0
202,Kawalu,ID,2020-04-19 19:03:30,-7.38,108.21,74.73,78,100,1.25,overcast clouds,0.0,0.0
203,Nalut,LY,2020-04-19 19:03:31,30.33,10.85,91.74,11,86,9.35,overcast clouds,0.0,0.0
204,Ornskoldsvik,SE,2020-04-19 18:57:26,63.29,18.72,51.8,83,42,9.17,scattered clouds,0.0,0.0
205,Chimoio,MZ,2020-04-19 19:03:33,-19.12,33.48,64.4,82,20,4.36,few clouds,0.0,0.0
206,Kokhma,RU,2020-04-19 19:03:34,56.93,41.09,37.04,76,94,1.43,overcast clouds,0.0,0.0
207,Nisia Floresta,BR,2020-04-19 19:03:35,-6.09,-35.21,86.0,70,20,13.87,few clouds,0.0,0.0
208,Asau,RO,2020-04-19 18:56:17,46.43,26.4,48.2,93,75,5.82,moderate rain,0.0,0.0
209,Ponta Do Sol,PT,2020-04-19 19:02:52,32.67,-17.1,66.0,43,24,5.99,few clouds,0.0,0.0
210,Faenza,IT,2020-04-19 18:59:03,44.29,11.88,63.0,70,100,4.25,overcast clouds,0.0,0.0
211,Salalah,OM,2020-04-19 18:53:38,17.02,54.09,82.4,69,20,6.93,few clouds,0.0,0.0
212,Neman,RU,2020-04-19 19:03:39,55.03,22.03,40.42,68,69,4.65,broken clouds,0.0,0.0
213,Amazar,RU,2020-04-19 19:03:39,53.86,120.88,15.93,82,18,6.08,few clouds,0.0,0.0
214,Rio Grande,BR,2020-04-19 18:56:22,-32.03,-52.1,80.6,57,20,14.99,few clouds,0.0,0.0
215,Faanui,PF,2020-04-19 19:03:41,-16.48,-151.75,82.6,78,68,14.05,broken clouds,0.0,0.0
216,Paris,FR,2020-04-19 19:00:02,48.85,2.35,63.0,72,75,14.99,broken clouds,0.0,0.0
217,San Patricio,MX,2020-04-19 18:54:23,19.22,-104.7,78.8,69,5,11.41,clear sky,0.0,0.0
218,Piacabucu,BR,2020-04-19 18:59:18,-10.41,-36.43,84.11,69,28,10.83,light rain,0.2,0.0
219,Geraldton,AU,2020-04-19 18:55:31,-28.77,114.6,57.2,87,35,10.29,scattered clouds,0.0,0.0
220,Kovdor,RU,2020-04-19 19:03:44,67.57,30.48,31.98,88,97,5.17,overcast clouds,0.0,0.0
221,Kamskiye Polyany,RU,2020-04-19 19:03:45,55.43,51.42,39.2,55,68,8.95,broken clouds,0.0,0.0
222,Talara,PE,2020-04-19 19:03:46,-4.58,-81.27,79.52,63,17,7.52,few clouds,0.0,0.0
223,Hwange,ZW,2020-04-19 19:03:47,-18.37,26.5,72.5,39,6,2.06,clear sky,0.0,0.0
224,Port Macquarie,AU,2020-04-19 19:03:47,-31.43,152.92,55.99,97,10,5.79,clear sky,0.0,0.0
225,Cidreira,BR,2020-04-19 18:53:56,-30.18,-50.21,72.5,65,0,14.12,clear sky,0.0,0.0
226,Coquimbo,CL,2020-04-19 19:03:49,-29.95,-71.34,62.6,82,75,12.75,broken clouds,0.0,0.0
227,Hithadhoo,MV,2020-04-19 19:03:50,-0.6,73.08,85.21,74,36,11.39,scattered clouds,0.0,0.0
228,Aksu,CN,2020-04-19 19:03:51,41.12,80.26,54.45,46,100,1.28,overcast clouds,0.0,0.0
229,Bairiki,KI,2020-04-19 19:03:52,1.33,172.98,77.0,100,40,2.24,scattered clouds,0.0,0.0
230,Yar-Sale,RU,2020-04-19 19:03:53,66.83,70.83,33.91,97,100,7.83,light rain,0.13,0.0
231,Mizdah,LY,2020-04-19 19:03:53,31.45,12.98,84.72,15,100,18.37,overcast clouds,0.0,0.0
232,Galveston,US,2020-04-19 19:02:00,29.37,-94.97,78.01,88,75,14.99,mist,0.0,0.0
233,Margate,GB,2020-04-19 18:57:31,51.38,1.39,51.01,84,0,24.02,clear sky,0.0,0.0
234,Narsaq,GL,2020-04-19 18:54:02,60.92,-46.05,32.0,87,20,4.7,few clouds,0.0,0.0
235,Warwick,US,2020-04-19 19:03:56,41.7,-71.42,60.01,49,20,14.99,few clouds,0.0,0.0
236,Mae Ramat,TH,2020-04-19 19:03:58,16.98,98.52,72.45,62,30,1.43,scattered clouds,0.0,0.0
237,Lashio,MM,2020-04-19 19:03:59,22.93,97.75,66.88,51,11,1.05,few clouds,0.0,0.0
238,Hofn,IS,2020-04-19 18:57:13,64.25,-15.21,44.42,85,100,7.54,overcast clouds,0.0,0.0
239,Tulun,RU,2020-04-19 19:04:01,54.56,100.58,27.43,77,0,5.66,clear sky,0.0,0.0
240,Kloulklubed,PW,2020-04-19 19:04:02,7.04,134.26,78.8,94,75,3.36,broken clouds,0.0,0.0
241,Pecos,US,2020-04-19 19:04:03,31.42,-103.49,79.0,10,1,23.04,clear sky,0.0,0.0
242,Lapeer,US,2020-04-19 19:04:03,43.05,-83.32,59.0,47,75,14.99,broken clouds,0.0,0.0
243,Grindavik,IS,2020-04-19 19:04:04,63.84,-22.43,48.2,93,90,29.97,light intensity drizzle,0.0,0.0
244,Raga,SS,2020-04-19 19:04:05,8.46,25.68,83.7,12,90,0.13,overcast clouds,0.0,0.0
245,Kutum,SD,2020-04-19 19:04:06,14.2,24.67,77.22,11,36,12.82,scattered clouds,0.0,0.0
246,Carlisle,US,2020-04-19 19:04:07,40.2,-77.19,59.0,36,49,1.99,scattered clouds,0.0,0.0
247,Anadyr,RU,2020-04-19 19:04:08,64.75,177.48,15.8,85,40,4.47,light snow,0.0,0.0
248,Hovd,MN,2020-04-19 19:04:09,48.01,91.64,38.55,33,0,1.5,clear sky,0.0,0.0
249,Egvekinot,RU,2020-04-19 19:04:09,66.32,-179.17,6.94,89,99,13.53,overcast clouds,0.0,0.0
250,Sao Felix Do Xingu,BR,2020-04-19 19:04:10,-6.64,-51.99,81.82,78,94,4.32,light rain,2.18,0.0
251,Ciudad Bolivar,VE,2020-04-19 18:56:06,8.12,-63.55,97.9,32,64,4.94,broken clouds,0.0,0.0
252,Buala,SB,2020-04-19 18:57:06,-8.14,159.59,80.62,79,63,1.63,light rain,1.48,0.0
253,Gavrilovka,UA,2020-04-19 19:04:13,49.98,36.05,44.46,57,62,3.8,broken clouds,0.0,0.0
254,Portland,US,2020-04-19 19:00:29,45.52,-122.68,60.01,62,75,6.93,broken clouds,0.0,0.0
255,Auki,SB,2020-04-19 19:04:14,-8.77,160.7,80.74,78,96,1.36,light rain,1.05,0.0
256,Altay,CN,2020-04-19 19:04:15,47.87,88.12,47.77,35,24,6.44,few clouds,0.0,0.0
257,Antofagasta,CL,2020-04-19 19:04:16,-23.65,-70.4,66.2,72,20,11.41,few clouds,0.0,0.0
258,Sterling,US,2020-04-19 19:04:16,39.01,-77.43,64.0,44,75,10.29,broken clouds,0.0,0.0
259,Morros,BR,2020-04-19 19:04:17,-9.45,-46.3,85.3,55,9,6.35,light rain,0.81,0.0
260,La Ronge,CA,2020-04-19 18:56:58,55.1,-105.28,41.0,44,75,20.8,broken clouds,0.0,0.0
261,Tromso,NO,2020-04-19 19:03:09,69.65,18.96,39.2,86,75,2.24,light intensity shower rain,0.0,0.0
262,Saint-Augustin,CA,2020-04-19 19:04:19,51.23,-58.65,31.71,94,79,12.88,broken clouds,0.0,0.0
263,Havelock,US,2020-04-19 18:57:00,34.88,-76.9,71.6,60,90,16.11,overcast clouds,0.0,0.0
264,Umm Kaddadah,SD,2020-04-19 19:04:21,13.6,26.69,84.78,11,1,9.84,clear sky,0.0,0.0
265,Yerofey Pavlovich,RU,2020-04-19 19:04:22,53.97,121.97,14.99,80,1,4.99,clear sky,0.0,0.0
266,Kruisfontein,ZA,2020-04-19 19:02:02,-34.0,24.73,75.02,40,31,8.19,scattered clouds,0.0,0.0
267,East London,ZA,2020-04-19 19:04:23,-33.02,27.91,77.58,64,8,18.14,clear sky,0.0,0.0
268,Pacific Grove,US,2020-04-19 18:51:53,36.62,-121.92,60.8,59,75,5.82,broken clouds,0.0,0.0
269,Tres Arroyos,AR,2020-04-19 19:04:25,-38.37,-60.28,77.41,34,44,6.26,scattered clouds,0.0,0.0
270,Dumas,US,2020-04-19 19:04:28,35.87,-101.97,71.01,30,1,5.82,clear sky,0.0,0.0
271,Pathein,MM,2020-04-19 18:57:21,16.78,94.73,76.98,86,29,8.66,scattered clouds,0.0,0.0
272,Concarneau,FR,2020-04-19 19:04:30,47.88,-3.92,57.2,76,100,11.41,light rain,2.84,0.0
273,Acajutla,SV,2020-04-19 18:59:47,13.59,-89.83,82.0,76,7,3.0,clear sky,0.0,0.0
274,Staunton,US,2020-04-19 19:04:31,38.15,-79.07,63.0,36,1,8.05,clear sky,0.0,0.0
275,Chingirlau,KZ,2020-04-19 19:04:32,51.09,54.08,48.4,61,99,6.69,overcast clouds,0.0,0.0
276,Calatayud,ES,2020-04-19 19:04:32,41.35,-1.64,62.6,93,90,2.24,light rain,0.0,0.0
277,Jiwani,PK,2020-04-19 19:04:33,25.05,61.74,80.28,81,86,11.21,overcast clouds,0.0,0.0
278,Suhbaatar,MN,2020-04-19 18:58:10,50.23,106.21,26.96,71,59,7.7,broken clouds,0.0,0.0
279,Cap-Aux-Meules,CA,2020-04-19 19:04:35,47.38,-61.86,37.4,59,20,23.04,few clouds,0.0,0.0
280,Tadine,NC,2020-04-19 19:04:36,-21.55,167.88,78.35,80,93,12.01,light rain,0.67,0.0
281,Bolshaya Rechka,RU,2020-04-19 19:04:36,51.95,104.74,26.6,38,93,6.71,overcast clouds,0.0,0.0
282,Taoudenni,ML,2020-04-19 18:55:04,22.68,-3.98,86.83,14,1,15.84,clear sky,0.0,0.0
283,Staraya Toropa,RU,2020-04-19 19:04:38,56.28,31.67,34.95,82,57,6.55,broken clouds,0.0,0.0
284,Usolye,RU,2020-04-19 19:04:39,59.43,56.68,33.01,82,89,4.88,overcast clouds,0.0,0.0
285,Camacha,PT,2020-04-19 19:04:39,33.08,-16.33,64.4,68,20,6.93,few clouds,0.0,0.0
286,Zelenogorskiy,RU,2020-04-19 19:04:40,55.03,87.0,48.2,34,28,8.95,scattered clouds,0.0,0.0
287,Emerald,AU,2020-04-19 19:04:41,-23.53,148.17,66.2,68,0,11.41,clear sky,0.0,0.0
288,Ust-Maya,RU,2020-04-19 19:04:42,60.42,134.53,4.23,91,2,2.75,clear sky,0.0,0.0
289,Puerto Cabezas,NI,2020-04-19 19:04:42,14.04,-83.39,86.0,74,40,9.17,moderate rain,0.0,0.0
290,Nabire,ID,2020-04-19 19:02:52,-3.37,135.48,76.62,80,40,2.84,scattered clouds,0.0,0.0
291,Praia Da Vitoria,PT,2020-04-19 19:01:12,38.73,-27.07,60.8,59,40,29.64,scattered clouds,0.0,0.0
292,Jumla,NP,2020-04-19 19:04:45,29.27,82.18,47.53,32,99,2.28,light rain,1.44,0.0
293,Talnakh,RU,2020-04-19 19:02:55,69.49,88.4,39.2,69,100,24.61,light rain,0.35,0.0
294,Finschhafen,PG,2020-04-19 19:04:45,-6.6,147.87,82.18,75,51,5.73,light rain,2.7,0.0
295,Sioux Lookout,CA,2020-04-19 19:00:39,50.1,-91.92,30.2,30,20,3.36,few clouds,0.0,0.0
296,Victor Harbor,AU,2020-04-19 19:04:46,-35.57,138.62,64.0,83,100,14.0,overcast clouds,0.0,0.0
297,Miguel Pereira,BR,2020-04-19 19:04:48,-22.45,-43.47,77.0,61,40,12.75,scattered clouds,0.0,0.0
298,Haikou,CN,2020-04-19 19:00:32,20.05,110.34,77.0,94,40,8.95,scattered clouds,0.0,0.0
299,Onguday,RU,2020-04-19 19:04:49,50.75,86.15,42.87,49,9,0.54,clear sky,0.0,0.0
300,Vila Franca Do Campo,PT,2020-04-19 19:04:50,37.72,-25.43,60.8,67,20,33.33,few clouds,0.0,0.0
301,Vanimo,PG,2020-04-19 19:04:51,-2.67,141.3,81.79,77,65,1.39,light rain,0.51,0.0
302,Fukue,JP,2020-04-19 19:04:52,32.69,128.84,62.02,84,89,27.29,overcast clouds,0.0,0.0
303,Watertown,US,2020-04-19 19:02:48,42.37,-71.18,62.01,33,20,14.99,few clouds,0.0,0.0
304,Solnechnyy,RU,2020-04-19 19:04:53,50.72,136.63,36.54,72,100,2.35,overcast clouds,0.0,0.0
305,Chilliwack,CA,2020-04-19 19:00:09,49.17,-121.94,53.15,74,99,2.59,light rain,0.29,0.0
306,Turbat,PK,2020-04-19 19:01:56,26.0,63.04,82.81,51,95,11.1,overcast clouds,0.0,0.0
307,Olafsvik,IS,2020-04-19 19:04:56,64.89,-23.71,43.11,95,100,14.32,moderate rain,4.17,0.0
308,Klaksvik,FO,2020-04-19 19:04:56,62.23,-6.59,46.4,81,0,11.41,clear sky,0.0,0.0
309,Kharp,RU,2020-04-19 19:04:57,66.8,65.81,32.97,92,97,3.98,overcast clouds,0.0,0.0
310,Pisco,PE,2020-04-19 18:55:10,-13.7,-76.22,75.2,64,9,9.17,clear sky,0.0,0.0
311,Broken Hill,AU,2020-04-19 19:04:58,-31.95,141.43,69.8,28,75,18.34,broken clouds,0.0,0.0
312,Huangnihe,CN,2020-04-19 19:04:59,43.56,128.02,42.49,69,100,12.24,light rain,1.33,0.0
313,Port Elizabeth,ZA,2020-04-19 19:05:00,-33.92,25.57,71.6,73,2,9.57,clear sky,0.0,0.0
314,Takoradi,GH,2020-04-19 19:05:01,4.88,-1.76,83.71,75,77,10.71,broken clouds,0.0,0.0
315,Lorengau,PG,2020-04-19 19:05:02,-2.02,147.27,82.11,78,30,5.06,scattered clouds,0.0,0.0
316,Apiai,BR,2020-04-19 19:01:08,-24.51,-48.84,70.41,46,56,5.01,broken clouds,0.0,0.0
317,Tommot,RU,2020-04-19 19:05:03,58.96,126.29,10.67,91,91,3.4,light snow,0.0,0.11
318,Sangar,RU,2020-04-19 19:05:03,63.92,127.47,6.19,85,2,1.72,clear sky,0.0,0.0
319,Carutapera,BR,2020-04-19 18:55:45,-1.2,-46.02,83.35,77,92,6.82,light rain,2.61,0.0
320,Lere,NG,2020-04-19 19:05:05,10.39,8.57,88.05,19,80,3.47,broken clouds,0.0,0.0
321,Kautokeino,NO,2020-04-19 19:05:06,69.01,23.04,34.21,84,97,5.93,overcast clouds,0.0,0.0
322,Bandarbeyla,SO,2020-04-19 19:03:03,9.49,50.81,82.78,69,61,10.25,broken clouds,0.0,0.0
323,Boca Do Acre,BR,2020-04-19 19:05:08,-8.75,-67.4,90.27,43,57,3.42,broken clouds,0.0,0.0
324,Morehead,US,2020-04-19 19:05:09,37.27,-87.18,60.8,58,90,4.7,overcast clouds,0.0,0.0
325,Hue,VN,2020-04-19 19:05:10,16.47,107.6,78.8,88,20,4.7,few clouds,0.0,0.0
326,Mahebourg,MU,2020-04-19 19:05:10,-20.41,57.7,77.0,83,75,9.17,broken clouds,0.0,0.0
327,Fairbanks,US,2020-04-19 18:55:01,64.84,-147.72,46.0,93,20,1.97,few clouds,0.0,0.0
328,Armidale,AU,2020-04-19 19:05:12,-30.52,151.65,40.48,56,12,2.98,few clouds,0.0,0.0
329,Lata,PT,2020-04-19 19:05:13,40.16,-8.33,59.0,76,9,5.01,clear sky,0.0,0.0
330,Whitianga,NZ,2020-04-19 19:05:14,-36.83,175.7,59.0,98,100,5.68,overcast clouds,0.0,0.0
331,Misratah,LY,2020-04-19 19:05:15,32.38,15.09,67.03,62,80,20.87,broken clouds,0.0,0.0
332,Dunn,US,2020-04-19 19:05:15,44.95,-91.88,46.99,28,1,10.29,clear sky,0.0,0.0
333,Marsa Matruh,EG,2020-04-19 19:05:16,31.35,27.25,60.8,67,6,6.78,clear sky,0.0,0.0
334,Khryashchevka,RU,2020-04-19 19:05:17,53.81,49.09,42.8,60,89,6.71,overcast clouds,0.0,0.0
335,Two Rivers,US,2020-04-19 19:05:18,44.15,-87.57,42.8,60,75,12.75,broken clouds,0.0,0.0
336,Rodrigues Alves,BR,2020-04-19 18:58:37,-7.74,-72.65,89.1,32,10,3.94,clear sky,0.0,0.0
337,Hukuntsi,BW,2020-04-19 19:05:20,-24.0,21.75,74.61,28,6,2.93,clear sky,0.0,0.0
338,Port Blair,IN,2020-04-19 19:05:20,11.67,92.75,83.88,76,5,8.19,clear sky,0.0,0.0
339,Ilulissat,GL,2020-04-19 19:05:22,69.22,-51.1,26.6,53,52,20.8,broken clouds,0.0,0.0
340,Jobner,IN,2020-04-19 19:05:23,26.97,75.38,86.0,22,40,4.7,haze,0.0,0.0
341,Jiangyou,CN,2020-04-19 19:05:24,31.77,104.72,62.04,62,100,2.89,overcast clouds,0.0,0.0
342,Guerrero Negro,MX,2020-04-19 19:02:39,27.98,-114.06,65.89,60,63,15.1,broken clouds,0.0,0.0
343,Matagami,CA,2020-04-19 19:05:26,49.75,-77.63,14.0,72,40,12.75,scattered clouds,0.0,0.0
344,Kolokani,ML,2020-04-19 19:05:27,13.57,-8.03,99.84,16,67,6.17,broken clouds,0.0,0.0
345,Norman Wells,CA,2020-04-19 19:05:27,65.28,-126.83,24.8,79,75,14.99,broken clouds,0.0,0.0
346,Cam Ranh,VN,2020-04-19 19:05:28,11.92,109.16,84.2,89,20,4.7,few clouds,0.0,0.0
347,Houma,US,2020-04-19 19:05:29,29.6,-90.72,86.0,83,1,10.29,mist,0.0,0.0
348,Gniezno,PL,2020-04-19 19:05:30,52.53,17.58,46.99,43,0,3.0,clear sky,0.0,0.0
349,Chulman,RU,2020-04-19 19:05:30,56.85,124.91,5.85,83,69,8.68,broken clouds,0.0,0.0
350,Cheremshan,RU,2020-04-19 19:04:01,54.67,51.5,40.96,64,50,4.97,scattered clouds,0.0,0.0
351,Airai,TL,2020-04-19 19:03:50,-8.93,125.41,60.22,61,15,2.1,few clouds,0.0,0.0
352,Coffeyville,US,2020-04-19 19:05:34,37.04,-95.62,69.8,56,1,12.75,clear sky,0.0,0.0
353,Nibe,DK,2020-04-19 19:05:34,56.98,9.64,48.99,67,0,5.57,clear sky,0.0,0.0
354,Thessalon,CA,2020-04-19 19:05:35,46.25,-83.57,37.4,37,1,11.41,clear sky,0.0,0.0
355,Saint-Georges,GD,2020-04-19 19:01:12,12.06,-61.75,86.0,66,20,20.8,few clouds,0.0,0.0
356,Dogondoutchi,NE,2020-04-19 19:05:37,13.64,4.03,97.59,14,86,5.06,overcast clouds,0.0,0.0
357,Nurlat,RU,2020-04-19 19:05:38,54.43,50.81,40.69,65,55,5.5,broken clouds,0.0,0.0
358,Makakilo City,US,2020-04-19 18:56:30,21.35,-158.09,75.2,69,75,2.66,light rain,0.0,0.0
359,Pocone,BR,2020-04-19 19:05:40,-16.26,-56.62,87.33,60,41,0.76,light rain,0.69,0.0
360,Guayaramerin,BO,2020-04-19 19:05:40,-10.84,-65.36,90.79,43,27,2.82,scattered clouds,0.0,0.0
361,Riyadh,SA,2020-04-19 19:04:58,24.69,46.72,80.6,30,95,6.93,overcast clouds,0.0,0.0
362,Kailua,US,2020-04-19 19:05:42,21.4,-157.74,80.6,57,75,6.29,broken clouds,0.0,0.0
363,Aranda De Duero,ES,2020-04-19 19:05:42,41.67,-3.69,55.99,59,99,6.24,light rain,2.56,0.0
364,Palmer,US,2020-04-19 18:56:45,42.16,-72.33,63.0,43,40,23.04,scattered clouds,0.0,0.0
365,Komsomolskiy,UZ,2020-04-19 19:02:47,40.43,71.72,62.6,33,3,6.93,clear sky,0.0,0.0
366,Naze,JP,2020-04-19 18:56:37,28.37,129.48,73.4,88,90,14.99,overcast clouds,0.0,0.0
367,Vila,PT,2020-04-19 19:05:45,42.03,-8.16,55.4,82,20,10.29,few clouds,0.0,0.0
368,Mariinsk,RU,2020-04-19 19:05:46,56.21,87.75,42.73,60,31,11.63,scattered clouds,0.0,0.0
369,Chunoyar,RU,2020-04-19 19:05:47,57.45,97.32,29.26,84,0,6.89,clear sky,0.0,0.0
370,Palmas,BR,2020-04-19 19:05:48,-10.21,-48.36,86.0,66,40,5.82,scattered clouds,0.0,0.0
371,Bolzano,IT,2020-04-19 19:05:49,46.49,11.33,71.6,43,40,6.93,scattered clouds,0.0,0.0
372,Batagay-Alyta,RU,2020-04-19 19:05:50,67.8,130.41,12.72,86,98,2.39,overcast clouds,0.0,0.0
373,Deseronto,CA,2020-04-19 19:05:50,44.2,-77.05,44.01,94,100,5.01,light rain,2.17,0.0
374,Southbridge,US,2020-04-19 19:01:10,42.08,-72.03,59.0,33,1,5.99,clear sky,0.0,0.0
375,Madang,PG,2020-04-19 19:05:52,-5.22,145.8,80.17,80,92,1.92,moderate rain,4.57,0.0
376,Dzaoudzi,YT,2020-04-19 19:01:53,-12.79,45.27,82.4,74,83,9.17,light rain,0.22,0.0
377,Sapa,PH,2020-04-19 19:05:53,5.15,120.32,83.98,73,68,5.91,broken clouds,0.0,0.0
378,Mecca,SA,2020-04-19 18:56:34,21.43,39.83,79.03,60,54,3.65,broken clouds,0.0,0.0
379,Banamba,ML,2020-04-19 19:05:54,13.55,-7.45,99.59,17,98,8.21,overcast clouds,0.0,0.0
380,Dovbysh,UA,2020-04-19 19:05:55,50.37,27.99,41.32,60,92,10.04,light rain,0.14,0.0
381,Qaqortoq,GL,2020-04-19 18:56:51,60.72,-46.03,32.0,89,20,4.7,few clouds,0.0,0.0
382,Tautira,PF,2020-04-19 19:01:11,-17.73,-149.15,84.2,70,95,19.84,light rain,0.41,0.0
383,Darhan,MN,2020-04-19 18:53:47,49.49,105.92,28.4,65,0,9.53,clear sky,0.0,0.0
384,Rio Gallegos,AR,2020-04-19 19:05:58,-51.62,-69.22,50.0,66,75,38.03,broken clouds,0.0,0.0
385,Ipora,BR,2020-04-19 19:03:56,-16.44,-51.12,79.99,64,58,4.54,light rain,0.34,0.0
386,Mehamn,NO,2020-04-19 19:05:59,71.04,27.85,39.2,86,75,28.86,shower rain,0.0,0.0
387,Rosario Do Sul,BR,2020-04-19 19:06:00,-30.26,-54.91,82.27,33,0,3.65,clear sky,0.0,0.0
388,Verkhoshizhemye,RU,2020-04-19 19:06:01,58.01,49.1,34.88,80,58,4.07,broken clouds,0.0,0.0
389,Port Lincoln,AU,2020-04-19 19:02:23,-34.73,135.87,63.25,74,100,21.52,light rain,0.13,0.0
390,Bubaque,GW,2020-04-19 19:06:02,11.28,-15.83,77.9,71,75,17.0,broken clouds,0.0,0.0
391,Haines Junction,CA,2020-04-19 19:06:03,60.75,-137.51,42.67,53,100,4.97,overcast clouds,0.0,0.0
392,Banda Aceh,ID,2020-04-19 19:01:56,5.56,95.32,80.06,82,94,5.12,overcast clouds,0.0,0.0
393,Pilar,BR,2020-04-19 19:01:07,-9.6,-35.96,82.4,74,40,10.29,shower rain,0.0,0.0
394,Cockburn Town,TC,2020-04-19 19:04:33,21.46,-71.14,78.55,79,16,14.18,few clouds,0.0,0.0
395,Poshekhonye,RU,2020-04-19 19:06:06,58.5,39.14,35.74,81,60,6.24,light rain,0.16,0.0
396,Ugoofaaru,MV,2020-04-19 19:06:06,5.67,73.0,86.04,74,25,10.07,scattered clouds,0.0,0.0
397,Korla,CN,2020-04-19 18:54:45,41.76,86.15,61.0,45,100,1.01,overcast clouds,0.0,0.0
398,Petatlan,MX,2020-04-19 19:04:16,17.52,-101.27,86.0,66,5,4.7,clear sky,0.0,0.0
399,Weligama,LK,2020-04-19 19:06:09,5.97,80.42,80.22,87,99,6.4,overcast clouds,0.0,0.0
400,Safaga,EG,2020-04-19 19:01:51,26.73,33.94,77.0,47,0,8.05,clear sky,0.0,0.0
401,Baruun-Urt,MN,2020-04-19 19:06:11,46.68,113.28,26.01,71,100,16.69,light snow,0.0,0.87
402,Saint-Pierre,RE,2020-04-19 19:06:12,-21.34,55.48,73.4,78,25,10.29,light rain,0.15,0.0
403,Ostrovnoy,RU,2020-04-19 18:57:32,68.05,39.51,30.65,95,97,10.69,light snow,0.0,0.35
404,Benguela,AO,2020-04-19 19:06:14,-12.58,13.41,79.68,82,39,1.81,light rain,1.29,0.0
405,Dingle,PH,2020-04-19 19:06:14,11.0,122.67,80.31,80,90,7.54,overcast clouds,0.0,0.0
406,Boende,CD,2020-04-19 19:06:15,-0.22,20.87,73.62,86,97,2.57,light rain,2.89,0.0
407,Lusambo,CD,2020-04-19 19:06:16,-4.97,23.45,73.27,82,73,1.99,light rain,1.54,0.0
408,Kaitangata,NZ,2020-04-19 19:03:15,-46.28,169.85,50.0,51,74,8.01,broken clouds,0.0,0.0
409,Le Mars,US,2020-04-19 19:06:17,42.79,-96.17,53.6,32,47,8.05,scattered clouds,0.0,0.0
410,Huilong,CN,2020-04-19 19:06:17,31.81,121.66,55.99,91,71,9.28,broken clouds,0.0,0.0
411,Puerto Escondido,MX,2020-04-19 19:06:19,15.85,-97.07,89.6,75,5,11.41,clear sky,0.0,0.0
412,Bethel,US,2020-04-19 19:06:19,41.37,-73.41,61.0,43,1,16.11,clear sky,0.0,0.0
413,Nelson Bay,AU,2020-04-19 18:58:55,-32.72,152.15,55.0,87,14,6.93,few clouds,0.0,0.0
414,Sungairaya,ID,2020-04-19 19:06:21,0.7,108.9,78.39,83,61,2.3,broken clouds,0.0,0.0
415,Marsh Harbour,BS,2020-04-19 19:06:22,26.54,-77.06,81.25,74,20,13.56,few clouds,0.0,0.0
416,Belmonte,BR,2020-04-19 19:06:22,-15.86,-38.88,73.4,94,75,9.17,light rain,0.0,0.0
417,Saint-Francois,FR,2020-04-19 19:06:26,46.42,3.91,60.01,82,100,4.32,light rain,0.0,0.0
418,Imbituba,BR,2020-04-19 19:06:26,-28.24,-48.67,77.0,53,20,9.17,few clouds,0.0,0.0
419,Bojnurd,IR,2020-04-19 19:02:39,37.47,57.33,55.4,58,24,6.93,few clouds,0.0,0.0
420,San Carlos De Bariloche,AR,2020-04-19 19:04:02,-41.15,-71.31,53.6,46,75,29.97,broken clouds,0.0,0.0
421,Seydi,TM,2020-04-19 19:06:30,39.48,62.91,74.55,19,49,11.83,scattered clouds,0.0,0.0
422,Okato,NZ,2020-04-19 19:06:31,-39.2,173.88,54.0,88,39,1.01,scattered clouds,0.0,0.0
423,Nishihara,JP,2020-04-19 19:03:30,26.18,127.76,75.2,88,20,18.34,few clouds,0.0,0.0
424,Suez,EG,2020-04-19 19:06:33,29.97,32.53,69.75,53,0,17.18,clear sky,0.0,0.0
425,Sumbe,AO,2020-04-19 19:06:34,-11.21,13.84,79.3,87,88,5.68,light rain,1.37,0.0
426,Okhotsk,RU,2020-04-19 19:06:14,59.38,143.3,7.47,83,41,10.4,scattered clouds,0.0,0.0
427,Yaan,NG,2020-04-19 19:06:35,7.38,8.57,87.78,52,95,10.02,light rain,0.31,0.0
428,Gerash,IR,2020-04-19 19:06:36,27.67,54.14,71.6,73,100,4.38,overcast clouds,0.0,0.0
429,Lerwick,GB,2020-04-19 19:06:36,60.15,-1.15,48.2,70,0,3.36,clear sky,0.0,0.0
430,Moose Factory,CA,2020-04-19 18:56:59,51.26,-80.61,14.0,51,75,12.75,broken clouds,0.0,0.0
431,Safakulevo,RU,2020-04-19 19:06:38,54.99,62.54,46.27,52,80,7.9,broken clouds,0.0,0.0
432,Iqaluit,CA,2020-04-19 19:06:39,63.75,-68.51,1.4,70,5,3.36,clear sky,0.0,0.0
433,Hokitika,NZ,2020-04-19 19:06:40,-42.72,170.97,49.95,75,77,3.47,light rain,1.02,0.0
434,Inirida,CO,2020-04-19 19:03:44,3.87,-67.92,81.57,76,81,2.68,light rain,2.69,0.0
435,Taitung,TW,2020-04-19 19:01:50,22.76,121.14,78.96,53,47,3.74,scattered clouds,0.0,0.0
436,Mogadishu,SO,2020-04-19 18:54:24,2.04,45.34,84.88,70,99,9.28,overcast clouds,0.0,0.0
437,Coihaique,CL,2020-04-19 19:05:40,-45.58,-72.07,44.6,87,90,8.14,light rain,0.0,0.0
438,Khandyga,RU,2020-04-19 19:06:43,62.67,135.6,-2.49,87,0,3.56,clear sky,0.0,0.0
439,Atasu,KZ,2020-04-19 18:59:14,48.68,71.64,57.06,37,43,3.24,scattered clouds,0.0,0.0
440,Bud,US,2020-04-19 19:06:45,39.45,-86.18,57.0,54,40,10.71,scattered clouds,0.0,0.0
441,Ust-Tsilma,RU,2020-04-19 19:06:46,65.44,52.15,33.51,96,100,3.85,overcast clouds,0.0,0.0
442,Clarksville,US,2020-04-19 19:02:15,36.53,-87.36,61.0,82,90,6.93,light rain,0.0,0.0
443,Tiksi,RU,2020-04-19 19:06:24,71.69,128.87,10.02,86,86,6.93,overcast clouds,0.0,0.0
444,Vao,NC,2020-04-19 19:06:49,-22.67,167.48,76.24,76,96,20.8,light rain,2.77,0.0
445,Port-Cartier,CA,2020-04-19 19:03:23,50.03,-66.87,35.01,69,75,17.22,broken clouds,0.0,0.0
446,Monrovia,LR,2020-04-19 19:06:50,6.3,-10.8,84.2,83,40,5.82,scattered clouds,0.0,0.0
447,Padang,ID,2020-04-19 19:06:51,-0.95,100.35,78.48,77,86,3.42,light rain,0.95,0.0
448,Gnjilane,XK,2020-04-19 19:06:51,42.46,21.47,68.0,30,40,12.75,scattered clouds,0.0,0.0
449,Ternate,ID,2020-04-19 19:06:52,0.8,127.4,80.71,76,91,2.15,light rain,0.63,0.0
450,Bambous Virieux,MU,2020-04-19 19:01:56,-20.34,57.76,77.0,83,75,9.17,broken clouds,0.0,0.0
451,Beringovskiy,RU,2020-04-19 19:06:53,63.05,179.32,16.25,96,100,15.46,light snow,0.0,0.63
452,Cutrofiano,IT,2020-04-19 19:06:54,40.13,18.2,64.4,88,40,5.82,scattered clouds,0.0,0.0
453,Mezhdurechensk,RU,2020-04-19 19:06:55,53.69,88.06,43.25,58,0,3.09,clear sky,0.0,0.0
454,Lakatoro,VU,2020-04-19 19:06:55,-16.1,167.42,75.2,94,90,2.24,overcast clouds,0.0,0.0
455,Yulara,AU,2020-04-19 19:06:56,-25.24,130.99,80.6,30,40,2.24,scattered clouds,0.0,0.0
456,Windhoek,NA,2020-04-19 19:06:57,-22.56,17.08,69.8,60,50,4.7,scattered clouds,0.0,0.0
457,Bayangol,RU,2020-04-19 19:06:58,50.7,103.47,18.66,74,2,3.33,clear sky,0.0,0.0
458,Kushima,JP,2020-04-19 19:06:41,31.46,131.23,66.16,88,100,14.29,moderate rain,9.86,0.0
459,Colares,PT,2020-04-19 18:58:33,38.8,-9.45,62.01,79,3,17.34,clear sky,0.0,0.0
460,Bukachacha,RU,2020-04-19 19:07:00,52.98,116.92,16.45,77,70,6.78,broken clouds,0.0,0.0
461,Gondanglegi,ID,2020-04-19 19:07:01,-7.75,112.01,76.35,88,99,1.39,light rain,0.97,0.0
462,Bathsheba,BB,2020-04-19 19:07:01,13.22,-59.52,86.0,58,20,19.46,few clouds,0.0,0.0
463,Kosh-Agach,RU,2020-04-19 19:07:02,50.0,88.67,35.67,35,0,2.71,clear sky,0.0,0.0
464,San Ramon De La Nueva Oran,AR,2020-04-19 19:07:03,-23.13,-64.33,87.01,42,0,4.38,clear sky,0.0,0.0
465,Cotonou,BJ,2020-04-19 19:07:04,6.37,2.42,82.4,83,40,13.87,scattered clouds,0.0,0.0
466,Sinnamary,GF,2020-04-19 18:59:16,5.38,-52.95,81.57,80,98,11.45,moderate rain,3.91,0.0
467,Viedma,AR,2020-04-19 19:05:11,-40.81,-63.0,71.6,26,68,8.81,broken clouds,0.0,0.0
468,Lodwar,KE,2020-04-19 19:07:06,3.12,35.6,79.39,48,86,3.71,overcast clouds,0.0,0.0
469,Naryan-Mar,RU,2020-04-19 19:07:07,67.67,53.09,31.46,98,100,2.46,light snow,0.0,0.12
470,Belyy Yar,RU,2020-04-19 19:07:07,53.6,91.39,41.0,41,0,11.18,clear sky,0.0,0.0
471,Tamasane,BW,2020-04-19 19:07:08,-22.42,27.4,73.4,56,26,4.16,scattered clouds,0.0,0.0
472,Abu Road,IN,2020-04-19 19:07:05,24.48,72.78,80.28,27,100,4.47,overcast clouds,0.0,0.0
473,Clyde River,CA,2020-04-19 18:58:12,70.47,-68.59,6.8,65,20,19.46,few clouds,0.0,0.0
474,Mahibadhoo,MV,2020-04-19 19:07:10,3.78,72.97,85.48,76,58,10.92,light rain,0.23,0.0
475,Teya,RU,2020-04-19 19:07:11,60.38,92.63,28.78,91,7,4.47,clear sky,0.0,0.0
476,Parfenyevo,RU,2020-04-19 19:07:11,58.48,43.41,35.98,79,96,2.44,light rain,0.19,0.0
477,Sinazongwe,ZM,2020-04-19 19:07:12,-17.26,27.46,76.68,52,14,1.79,few clouds,0.0,0.0
478,Eregli,TR,2020-04-19 19:07:12,37.51,34.05,62.71,29,31,5.66,scattered clouds,0.0,0.0
479,Grand Gaube,MU,2020-04-19 19:07:13,-20.01,57.66,77.0,83,75,9.17,broken clouds,0.0,0.0
480,Trofors,NO,2020-04-19 19:07:14,65.53,13.41,41.0,93,75,4.7,broken clouds,0.0,0.0
481,Dese,ET,2020-04-19 19:07:15,11.13,39.63,55.4,39,63,1.01,light rain,0.66,0.0
482,Key West,US,2020-04-19 19:05:24,24.56,-81.78,87.8,66,1,14.99,clear sky,0.0,0.0
483,Tshikapa,CD,2020-04-19 19:07:16,-6.42,20.8,72.99,76,45,1.14,scattered clouds,0.0,0.0
484,Nouadhibou,MR,2020-04-19 18:55:06,20.93,-17.03,69.8,68,0,23.04,sand,0.0,0.0
485,Juegang,CN,2020-04-19 19:07:18,32.32,121.19,55.0,89,66,8.5,broken clouds,0.0,0.0
486,Touros,BR,2020-04-19 19:07:19,-5.2,-35.46,86.0,70,40,16.11,scattered clouds,0.0,0.0
487,Kotelnich,RU,2020-04-19 19:07:20,58.31,48.35,37.72,74,55,4.63,broken clouds,0.0,0.0
488,Gonaives,HT,2020-04-19 19:07:20,19.45,-72.68,84.2,66,40,18.34,scattered clouds,0.0,0.0
489,Lompoc,US,2020-04-19 19:07:13,34.64,-120.46,62.6,59,75,5.82,broken clouds,0.0,0.0
490,Aschersleben,DE,2020-04-19 19:07:22,51.75,11.47,50.0,46,0,3.0,clear sky,0.0,0.0
491,Mayya,RU,2020-04-19 19:07:23,61.73,130.28,8.6,60,20,4.47,few clouds,0.0,0.0
492,Srednekolymsk,RU,2020-04-19 19:07:24,67.45,153.68,-8.01,89,5,6.96,clear sky,0.0,0.0
493,Oranzherei,RU,2020-04-19 19:07:25,45.85,47.57,57.2,50,62,6.71,broken clouds,0.0,0.0
494,Comodoro Rivadavia,AR,2020-04-19 19:04:46,-45.87,-67.5,62.6,29,20,28.86,few clouds,0.0,0.0
495,Wentzville,US,2020-04-19 19:07:27,38.81,-90.85,66.99,41,90,8.99,light rain,0.19,0.0
496,Wattegama,LK,2020-04-19 19:07:27,6.8,81.48,78.8,100,97,2.24,overcast clouds,0.0,0.0
497,El Espinal,MX,2020-04-19 19:07:28,16.33,-94.07,85.17,55,92,9.6,light rain,0.26,0.0
498,Prince Rupert,CA,2020-04-19 19:04:30,54.32,-130.32,44.6,100,90,4.7,overcast clouds,0.0,0.0
499,Nizhneangarsk,RU,2020-04-19 19:07:30,55.78,109.55,12.11,82,3,11.12,clear sky,0.0,0.0
500,Rayevskiy,RU,2020-04-19 19:07:30,54.07,54.95,41.45,65,53,2.04,broken clouds,0.0,0.0
501,Ganzhou,CN,2020-04-19 19:07:31,28.82,115.43,58.8,75,11,1.77,few clouds,0.0,0.0
502,Khani,GE,2020-04-19 19:07:32,41.96,42.96,53.6,76,53,3.36,light rain,0.12,0.0
503,Coahuayana,MX,2020-04-19 19:04:35,18.73,-103.68,84.2,51,5,6.55,clear sky,0.0,0.0
504,Port Augusta,AU,2020-04-19 18:59:22,-32.5,137.77,70.0,72,98,12.75,overcast clouds,0.0,0.0
505,Inhumas,BR,2020-04-19 19:07:34,-16.36,-49.5,80.6,65,75,13.87,broken clouds,0.0,0.0
506,Sorland,NO,2020-04-19 19:04:40,67.67,12.69,42.8,87,75,13.87,broken clouds,0.0,0.0
507,Taraclia,MD,2020-04-19 19:07:35,45.9,28.67,53.08,89,100,3.62,moderate rain,3.04,0.0
508,Lauria,IT,2020-04-19 19:07:36,40.05,15.84,58.89,60,53,0.85,broken clouds,0.0,0.0
509,Great Bend,US,2020-04-19 19:07:37,38.36,-98.76,69.8,46,20,9.17,few clouds,0.0,0.0
510,Skoropuskovskiy,RU,2020-04-19 19:07:37,56.37,38.17,37.4,86,20,4.47,few clouds,0.0,0.0
511,Soderhamn,SE,2020-04-19 19:07:38,61.3,17.06,48.0,53,87,5.77,overcast clouds,0.0,0.0
512,Yizheng,CN,2020-04-19 19:07:39,24.67,103.43,59.27,36,8,6.08,clear sky,0.0,0.0
513,Doka,SD,2020-04-19 19:07:40,13.52,35.77,85.91,10,79,6.35,broken clouds,0.0,0.0
514,Pampas,PE,2020-04-19 19:07:40,-12.4,-74.9,59.07,19,71,5.77,light rain,0.36,0.0
515,Ranibennur,IN,2020-04-19 19:07:41,14.62,75.62,79.93,53,50,7.47,scattered clouds,0.0,0.0
516,El Alto,PE,2020-04-19 19:07:41,-4.27,-81.21,76.82,65,19,6.04,few clouds,0.0,0.0
517,Sibolga,ID,2020-04-19 19:07:42,1.74,98.78,77.65,80,99,3.6,light rain,0.59,0.0
518,Suruc,TR,2020-04-19 19:07:43,36.98,38.42,64.4,55,2,3.36,clear sky,0.0,0.0
519,Greenville,US,2020-04-19 19:07:43,35.61,-77.37,72.0,53,1,10.29,clear sky,0.0,0.0
520,Dhidhdhoo,MV,2020-04-19 19:06:28,6.88,73.1,86.79,71,35,8.21,scattered clouds,0.0,0.0
521,Harper,LR,2020-04-19 19:07:45,4.38,-7.72,83.44,76,100,7.2,overcast clouds,0.0,0.0
522,Takestan,IR,2020-04-19 19:07:46,36.07,49.7,59.74,39,33,1.05,light rain,0.14,0.0
523,Goderich,CA,2020-04-19 18:58:50,43.75,-81.72,39.0,86,98,15.59,light rain,0.64,0.0
524,Ojinaga,MX,2020-04-19 19:07:47,29.57,-104.42,80.6,14,1,8.05,clear sky,0.0,0.0
525,Dordrecht,NL,2020-04-19 19:07:48,51.81,4.67,60.01,47,14,4.0,few clouds,0.0,0.0
526,Waitati,NZ,2020-04-19 19:07:49,-45.75,170.57,48.0,55,28,3.0,scattered clouds,0.0,0.0
527,Matara,LK,2020-04-19 19:04:30,5.95,80.54,79.95,88,99,5.95,light rain,0.12,0.0
528,Yerbogachen,RU,2020-04-19 19:05:07,61.28,108.01,15.66,91,0,2.62,clear sky,0.0,0.0
529,Kitakami,JP,2020-04-19 19:07:51,39.28,141.12,44.29,83,98,5.17,overcast clouds,0.0,0.0
530,Carupano,VE,2020-04-19 19:07:52,10.67,-63.26,87.69,52,43,10.45,scattered clouds,0.0,0.0
531,Lensk,RU,2020-04-19 19:07:53,60.73,114.93,16.77,94,96,2.46,overcast clouds,0.0,0.0
532,Chumikan,RU,2020-04-19 19:03:31,54.72,135.31,21.22,94,100,9.78,snow,0.0,2.05
533,Quelimane,MZ,2020-04-19 19:07:54,-17.88,36.89,77.0,83,75,6.93,drizzle,0.0,0.0
534,Dunedin,NZ,2020-04-19 19:07:55,-45.87,170.5,48.0,56,33,11.5,scattered clouds,0.0,0.0
535,Berberati,CF,2020-04-19 19:05:04,4.26,15.79,73.0,76,97,3.42,light rain,1.86,0.0
536,Gravatai,BR,2020-04-19 19:07:56,-29.94,-50.99,82.4,39,0,4.7,clear sky,0.0,0.0
537,Hambantota,LK,2020-04-19 19:06:32,6.12,81.12,78.8,100,99,2.24,light rain,0.84,0.0
538,Shingu,JP,2020-04-19 19:07:58,33.73,135.98,56.88,84,100,13.15,light rain,1.76,0.0
539,Quatre Cocos,MU,2020-04-19 18:58:03,-20.21,57.76,77.0,83,75,9.17,broken clouds,0.0,0.0
540,Muisne,EC,2020-04-19 19:07:59,0.6,-80.03,84.2,83,40,9.17,scattered clouds,0.0,0.0
541,Swakopmund,NA,2020-04-19 19:07:59,-22.68,14.53,62.6,77,5,3.36,clear sky,0.0,0.0
542,Tosham,IN,2020-04-19 19:08:00,28.88,75.92,82.62,24,26,7.11,scattered clouds,0.0,0.0
543,Talaya,RU,2020-04-19 19:08:01,61.38,152.75,-5.24,82,100,2.84,light snow,0.0,0.21
544,Iskateley,RU,2020-04-19 19:08:05,67.68,53.15,31.33,98,100,2.28,light snow,0.0,0.12
545,Omboue,GA,2020-04-19 19:08:05,-1.57,9.26,80.78,82,73,4.76,light rain,2.99,0.0
546,Wanaka,NZ,2020-04-19 19:08:06,-44.7,169.15,40.46,68,34,6.76,scattered clouds,0.0,0.0
547,West Bay,KY,2020-04-19 19:08:07,19.37,-81.42,89.6,66,20,6.93,few clouds,0.0,0.0
548,Thinadhoo,MV,2020-04-19 19:08:07,0.53,72.93,85.08,76,72,12.17,broken clouds,0.0,0.0
549,Narrabri,AU,2020-04-19 19:04:43,-30.32,149.78,51.01,87,47,1.12,scattered clouds,0.0,0.0
550,Biak,ID,2020-04-19 19:08:09,-0.91,122.88,80.46,72,7,3.02,light rain,0.37,0.0
551,Eureka,US,2020-04-19 19:08:09,40.8,-124.16,60.01,69,63,5.99,broken clouds,0.0,0.0
552,Jatai,BR,2020-04-19 19:07:57,-17.88,-51.71,73.8,69,94,5.19,light rain,0.94,0.0
553,Nokaneng,BW,2020-04-19 19:08:11,-19.67,22.27,76.91,28,85,8.01,overcast clouds,0.0,0.0
554,Chimbote,PE,2020-04-19 19:06:08,-9.09,-78.58,77.32,65,12,12.35,few clouds,0.0,0.0
555,Gat,IL,2020-04-19 19:08:12,31.61,34.76,70.0,19,7,12.66,clear sky,0.0,0.0
556,Bryan,US,2020-04-19 19:08:13,30.67,-96.37,80.6,88,90,9.17,overcast clouds,0.0,0.0
557,Locri,IT,2020-04-19 19:08:14,38.24,16.26,62.01,25,52,6.69,broken clouds,0.0,0.0
558,Uzhur,RU,2020-04-19 19:08:15,55.3,89.83,38.97,61,2,4.99,clear sky,0.0,0.0
559,Aksay,RU,2020-04-19 19:08:15,47.26,39.87,54.0,34,99,4.47,overcast clouds,0.0,0.0
560,Bilma,NE,2020-04-19 19:08:16,18.69,12.92,90.0,10,9,3.53,clear sky,0.0,0.0
561,Presidencia Roque Saenz Pena,AR,2020-04-19 19:08:07,-26.79,-60.44,87.55,25,0,4.27,clear sky,0.0,0.0
562,Cajati,BR,2020-04-19 19:04:14,-24.74,-48.12,75.07,65,58,3.94,light rain,0.51,0.0
563,Meulaboh,ID,2020-04-19 19:03:50,4.14,96.13,80.02,82,90,3.65,light rain,1.55,0.0
564,Chicama,PE,2020-04-19 18:58:53,-7.84,-79.15,71.6,78,22,13.87,few clouds,0.0,0.0
565,Palana,RU,2020-04-19 19:08:19,59.12,159.97,9.68,95,91,4.52,light snow,0.0,0.14
566,Turukhansk,RU,2020-04-19 19:08:20,65.82,87.98,37.99,75,100,15.46,overcast clouds,0.0,0.0
